City_ID,City,Lat,Lng,Max Temp,Humidity,Cloudiness,Wind Speed,Country,Date
0,eureka,40.8021,-124.1637,292.41,77,4,1.34,US,1695494204
1,mejit,10.2753,170.8646,301.59,73,100,3.34,MH,1695494204
2,albany,42.6001,-73.9662,288.38,79,100,0.89,US,1695494194
3,blackmans bay,-43.0167,147.3167,280.11,93,31,2.59,AU,1695494204
4,utrik,11.2278,169.8474,301.57,75,100,8.81,MH,1695494204
5,codrington,-38.2667,141.9667,280.28,81,0,3.27,AU,1695494204
6,mga,59.75,31.0667,294.11,62,99,5.69,RU,1695494205
7,tazovsky,67.4667,78.7,273.1,83,56,6.59,RU,1695494205
8,afaahiti,-17.75,-149.2833,295.08,93,100,11.29,PF,1695494205
9,ancud,-41.8697,-73.8203,282.0,57,100,1.63,CL,1695494206
10,puerto natales,-51.7236,-72.4875,283.4,46,75,7.72,CL,1695494206
11,kuta,-8.7233,115.1723,298.15,94,20,2.68,ID,1695494206
12,vanino,49.0869,140.2543,281.58,75,7,2.65,RU,1695493935
13,luganville,-15.5333,167.1667,296.14,85,98,2.15,VU,1695494207
14,wailua homesteads,22.0669,-159.378,298.39,81,75,6.17,US,1695494207
15,shangrao,28.4532,117.9686,294.73,96,78,1.86,CN,1695494207
16,tanggu,39.0211,117.6469,291.13,54,89,2.28,CN,1695494207
17,grytviken,-54.2811,-36.5092,271.31,83,99,4.11,GS,1695494207
18,sungai raya,0.7,108.9,298.67,79,99,3.46,ID,1695494207
19,lihue,21.9789,-159.3672,298.73,82,75,6.17,US,1695494208
20,adamstown,-25.066,-130.1015,293.78,88,96,11.92,PN,1695494209
21,aasiaat,68.7098,-52.8699,272.85,62,0,3.77,GL,1695494209
22,imperatriz,-5.5264,-47.4917,309.18,41,40,2.57,BR,1695494209
23,dera bugti,29.0307,69.151,303.25,55,4,2.39,PK,1695494209
24,gobabis,-22.45,18.9667,294.19,46,98,4.1,NA,1695494209
25,yellowknife,62.456,-114.3525,284.44,82,100,4.63,CA,1695494209
26,ilulissat,69.2167,-51.1,276.16,28,20,6.69,GL,1695494209
27,shakawe,-18.3667,21.85,298.89,17,22,2.96,BW,1695494209
28,sola,-13.8833,167.55,298.19,74,97,4.51,VU,1695494210
29,gaigeturi,33.4644,126.3183,296.18,73,75,7.72,KR,1695494210
30,olonkinbyen,70.9221,-8.7187,275.09,66,100,4.2,SJ,1695494210
31,moab,38.5733,-109.5498,297.31,20,57,1.6,US,1695494210
32,san patricio,28.017,-97.5169,309.19,43,15,6.39,US,1695494210
33,bethel,41.3712,-73.414,288.82,84,100,0.45,US,1695494210
34,qui nhon,13.7667,109.2333,299.21,87,100,1.56,VN,1695494210
35,kathu,7.9178,98.3332,301.31,80,95,7.34,TH,1695494210
36,portland,45.5234,-122.6762,291.76,71,100,3.13,US,1695493981
37,vorgashor,67.5833,63.95,277.22,96,100,6.37,RU,1695494211
38,bilibino,68.0546,166.4372,273.65,98,100,1.91,RU,1695493940
39,aykhal,66.0,111.5,278.97,96,40,3.62,RU,1695494211
40,port mathurin,-19.6833,63.4167,296.34,65,30,11.24,MU,1695494211
41,jamestown,42.097,-79.2353,294.92,37,0,5.14,US,1695494058
42,sant antoni de portmany,38.9807,1.3036,295.98,63,0,2.06,ES,1695494211
43,chonchi,-42.6128,-73.8092,282.71,61,100,1.95,CL,1695494211
44,ust-nera,64.5667,143.2,271.27,95,100,0.54,RU,1695493938
45,puerto ayora,-0.7393,-90.3518,302.13,86,83,3.13,EC,1695494212
46,mikhaylov,54.2292,39.0186,288.48,43,76,3.46,RU,1695494212
47,talnakh,69.4865,88.3972,274.38,79,66,7.24,RU,1695494212
48,saint-joseph,-21.3667,55.6167,295.36,78,17,6.08,RE,1695494212
49,egilsstadir,65.2653,-14.3948,279.1,75,100,1.03,IS,1695494212
50,port-aux-francais,-49.35,70.2167,275.01,88,84,22.57,TF,1695494212
51,lupane,-18.9315,27.807,295.45,23,0,2.88,ZW,1695494212
52,punta arenas,-53.15,-70.9167,282.21,61,40,15.43,CL,1695494108
53,mirnyy,62.5353,113.9611,279.95,81,51,1.79,RU,1695494213
54,suda,59.1525,37.5582,292.21,54,0,5.56,RU,1695494213
55,rongelap,11.1635,166.8941,301.33,80,100,7.77,MH,1695494213
56,labytnangi,66.6572,66.4183,277.49,95,100,3.96,RU,1695494213
57,rybinsk,58.0446,38.8426,291.11,54,0,4.02,RU,1695494213
58,la mana,-0.9333,-79.2167,307.38,50,33,2.09,EC,1695494213
59,haiku-pauwela,20.9219,-156.3051,299.28,77,40,6.17,US,1695494214
60,labrador city,52.9463,-66.9114,283.1,76,100,5.14,CA,1695494060
61,waitangi,-43.9535,-176.5597,285.83,95,100,1.79,NZ,1695494214
62,sitka,57.0531,-135.33,282.09,81,40,2.57,US,1695493931
63,at taj,24.2049,23.2857,299.96,16,0,3.26,LY,1695494214
64,naifaru,5.4444,73.3657,301.51,75,95,4.59,MV,1695494214
65,keflavik,64.0049,-22.5624,283.39,87,75,3.09,IS,1695494214
66,talara,-4.5772,-81.2719,299.57,61,0,8.02,PE,1695494214
67,baukau,51.5526,7.2042,288.66,71,39,1.79,DE,1695494215
68,tromso,69.6496,18.957,281.16,81,75,4.12,NO,1695493986
69,longyearbyen,78.2186,15.6401,268.06,80,20,2.06,SJ,1695494108
70,floro,61.5996,5.0328,283.13,81,75,6.69,NO,1695494215
71,ushuaia,-54.8,-68.3,276.96,93,100,13.89,AR,1695494215
72,tofol,5.3248,163.0078,300.81,78,100,6.05,FM,1695494215
73,daru,-9.0763,143.2092,297.68,88,86,8.3,PG,1695494215
74,bredasdorp,-34.5322,20.0403,284.32,80,100,4.16,ZA,1695494215
75,sos'va,59.1766,61.8558,283.48,97,12,2.88,RU,1695494216
76,st. john's,47.5649,-52.7093,290.81,67,75,10.8,CA,1695494216
77,cananeia,-25.0147,-47.9267,297.3,78,13,2.86,BR,1695494216
78,carnarvon,-24.8667,113.6333,290.81,78,0,8.61,AU,1695494216
79,hermanus,-34.4187,19.2345,284.15,78,100,7.53,ZA,1695494217
80,taroa,8.7058,171.2275,300.67,77,100,1.4,MH,1695494217
81,bandon,51.7469,-8.7425,289.92,97,100,7.49,IE,1695494217
82,kodiak,57.79,-152.4072,279.88,81,100,2.06,US,1695494217
83,dagomys,43.6703,39.6689,293.12,60,0,2.22,RU,1695494217
84,enewetak,11.3474,162.3373,300.43,83,100,4.08,MH,1695494217
85,georgetown,5.4112,100.3354,299.83,94,20,0.0,MY,1695494152
86,nadi,-17.8,177.4167,297.15,88,75,2.57,FJ,1695494178
87,port augusta,-32.5,137.7667,284.86,45,0,1.59,AU,1695494218
88,tralee,52.2704,-9.7026,288.46,98,100,3.04,IE,1695494218
89,ribeira grande,38.5167,-28.7,297.37,83,75,5.66,PT,1695494218
90,nova sintra,14.8667,-24.7167,297.54,79,98,4.69,CV,1695494218
91,paita,-5.0892,-81.1144,295.73,71,70,7.9,PE,1695494218
92,midvagur,62.0511,-7.1939,279.61,75,75,1.03,FO,1695494218
93,lompoc,34.6391,-120.4579,293.49,78,100,3.09,US,1695493958
94,westport,41.1415,-73.3579,289.52,83,100,8.75,US,1695494219
95,margate,51.3813,1.3862,287.42,67,100,0.89,GB,1695494219
96,brokopondo,4.75,-55.1667,306.92,44,54,1.03,SR,1695494219
97,paoua,7.2427,16.4406,294.3,92,16,0.44,CF,1695494219
98,kapa'a,22.0752,-159.319,299.14,81,75,6.17,US,1695494219
99,visakhapatnam,17.69,83.2093,301.09,100,75,2.06,IN,1695494220
100,whitehorse,60.7161,-135.0538,278.76,79,75,5.14,CA,1695494220
101,kawanoecho,34.0167,133.5667,292.91,72,100,2.64,JP,1695494221
102,port lincoln,-34.7333,135.8667,287.6,61,0,4.27,AU,1695494177
103,saipan,15.1355,145.701,300.54,83,0,1.54,MP,1695494221
104,yuzhno-kurilsk,44.0306,145.8556,285.71,71,0,1.38,RU,1695494221
105,nova xavantina,-14.6667,-52.35,313.99,14,34,2.25,BR,1695494221
106,tshikapa,-6.4167,20.8,298.63,69,85,1.83,CD,1695494221
107,mutum,-19.8,-41.4383,306.3,32,23,1.39,BR,1695494221
108,thompson,55.7435,-97.8558,294.24,43,20,3.09,CA,1695494222
109,edinburgh of the seven seas,-37.0676,-12.3116,287.61,92,100,19.15,SH,1695494222
110,anqing,30.5092,117.0506,290.97,94,100,2.41,CN,1695494222
111,tiksi,71.6872,128.8694,274.49,81,93,4.57,RU,1695494222
112,college,64.8569,-147.8028,277.48,90,75,0.0,US,1695494222
113,aripuana,-9.1667,-60.6333,312.3,21,98,0.96,BR,1695494223
114,puerto leguizamo,-0.1934,-74.7819,308.87,36,45,2.25,CO,1695494223
115,prince george,53.9166,-122.753,282.84,66,100,1.54,CA,1695494223
116,ulsteinvik,62.3432,5.8487,286.35,88,100,6.71,NO,1695494223
117,vancleave,30.5405,-88.6875,305.58,47,20,2.57,US,1695494224
118,saint-francois,46.4154,3.9054,285.84,76,0,0.0,FR,1695494224
119,jaru,-10.4389,-62.4664,312.63,22,34,3.46,BR,1695494225
120,constantia,44.1833,28.65,295.76,82,2,5.39,RO,1695494126
121,shache,38.4167,77.2406,287.43,41,0,3.45,CN,1695494225
122,petropavlovsk-kamchatsky,53.0452,158.6483,276.48,87,40,0.0,RU,1695494225
123,fortuna,40.5982,-124.1573,292.0,75,0,2.06,US,1695494225
124,bocaiuva,-17.1078,-43.815,308.99,20,45,2.82,BR,1695494226
125,campo grande,-20.4428,-54.6464,302.9,48,75,6.17,BR,1695494226
126,samdrup jongkhar,26.9167,91.6167,293.62,96,100,1.05,BT,1695494226
127,canutama,-6.5339,-64.3831,310.07,32,98,1.5,BR,1695494226
128,port alfred,-33.5906,26.891,289.36,96,100,0.45,ZA,1695494226
129,kapuskasing,49.4169,-82.4331,294.15,60,75,3.09,CA,1695494227
130,sirte,31.2089,16.5887,301.74,53,96,6.5,LY,1695494228
131,bubaque,11.2833,-15.8333,300.79,73,40,1.11,GW,1695494228
132,udachny,66.4167,112.4,281.18,93,65,3.01,RU,1695494228
133,vilyuchinsk,52.9306,158.4028,277.3,79,61,5.66,RU,1695494228
134,cheremukhovo,60.3484,59.9851,283.41,94,4,1.81,RU,1695494228
135,meadow lakes,61.6247,-149.6011,281.89,83,100,0.0,US,1695494228
136,cill airne,52.05,-9.5167,288.94,98,100,2.52,IE,1695494230
137,umluj,25.0213,37.2685,303.68,61,0,2.54,SA,1695494230
138,ola,59.5833,151.2833,278.23,76,32,1.3,RU,1695494230
139,san antonio de pale,-1.4014,5.6325,297.79,82,95,4.84,GQ,1695494230
140,nar'yan-mar,67.6713,53.087,287.44,91,96,7.69,RU,1695494230
141,qaqortoq,60.7167,-46.0333,278.1,52,100,3.54,GL,1695494231
142,nivala,63.9167,24.9667,286.31,86,100,3.63,FI,1695494231
143,badger,64.8,-147.5333,277.43,90,75,0.0,US,1695494070
144,rustington,50.8103,-0.5067,289.53,60,20,4.12,GB,1695494231
145,altai,46.3722,96.2583,276.63,62,6,2.96,MN,1695494231
146,lebu,-37.6167,-73.65,284.31,65,0,5.64,CL,1695494231
147,hamilton,39.1834,-84.5333,299.48,42,0,5.66,US,1695494069
148,manali,13.1667,80.2667,299.3,86,99,6.43,IN,1695494232
149,progreso,21.2833,-89.6667,307.65,58,0,4.68,MX,1695494232
150,cockburn town,21.4612,-71.1419,302.57,73,19,7.5,TC,1695493934
151,darwin,-12.4611,130.8418,299.2,89,82,1.54,AU,1695494232
152,vanersborg,58.3807,12.3234,286.35,87,0,3.09,SE,1695494232
153,faya-largeau,17.9257,19.1043,308.25,11,24,4.09,TD,1695494233
154,kencong,-8.2833,113.3667,295.31,93,83,0.63,ID,1695494233
155,murun-kuren,49.6342,100.1625,279.48,75,0,2.16,MN,1695494234
156,smidovich,48.6,133.8167,283.1,82,45,3.0,RU,1695494234
157,villa canas,-34.0057,-61.6076,285.11,92,100,2.73,AR,1695494234
158,invercargill,-46.4,168.35,277.05,88,78,1.79,NZ,1695494234
159,belel,7.05,14.4333,289.71,95,91,0.54,CM,1695494234
160,belogorsk,50.9158,128.4611,282.29,76,6,3.52,RU,1695494234
161,saint-philippe,-21.3585,55.7679,295.92,81,37,6.63,RE,1695494234
162,kenai,60.5544,-151.2583,281.01,87,75,1.54,US,1695494129
163,loughrea,53.1969,-8.5669,287.9,97,100,5.61,IE,1695494235
164,novyy urgal,51.0736,132.5642,278.07,94,0,0.15,RU,1695494235
165,domanivka,47.6319,30.9885,292.44,49,3,1.7,UA,1695494235
166,acarau,-2.8856,-40.12,301.94,64,0,10.15,BR,1695494235
167,tefe,-3.3542,-64.7114,306.21,58,40,1.03,BR,1695494235
168,copala,16.65,-98.9833,304.61,65,98,3.32,MX,1695494236
169,cidreira,-30.1811,-50.2056,292.57,97,100,8.52,BR,1695494236
170,peace river,56.2501,-117.286,290.32,59,20,2.57,CA,1695494236
171,lerwick,60.1545,-1.1494,283.15,63,100,2.75,GB,1695494236
172,sorong,-0.8833,131.25,298.53,87,100,5.71,ID,1695494236
173,conception bay south,47.4999,-52.9981,290.78,68,100,9.18,CA,1695494083
174,la passe,45.5549,-0.8967,291.28,68,7,1.26,FR,1695494236
175,ormara,25.2088,64.6357,299.52,86,29,6.39,PK,1695494237
176,mangaratiba,-22.9597,-44.0406,298.63,77,53,1.82,BR,1695494237
177,bodaybo,57.8506,114.1933,281.02,84,10,1.01,RU,1695494237
178,angra do heroismo,38.65,-27.2167,297.49,88,75,4.02,PT,1695494237
179,coquimbo,-29.9533,-71.3436,291.0,67,0,6.69,CL,1695494237
180,isafjordur,66.0755,-23.124,279.17,70,75,6.17,IS,1695494237
181,flying fish cove,-10.4217,105.6791,296.97,88,75,5.66,CX,1695494238
182,salinopolis,-0.6136,-47.3561,302.15,69,1,6.84,BR,1695494238
183,saldanha,-33.0117,17.9442,286.18,72,0,14.36,ZA,1695494238
184,glace bay,46.1969,-59.957,294.8,61,40,9.77,CA,1695494090
185,arraial do cabo,-22.9661,-42.0278,299.13,73,0,4.12,BR,1695494238
186,kindu,-2.95,25.95,294.0,98,100,1.35,CD,1695494238
187,mirny,62.5353,113.9611,279.95,81,51,1.79,RU,1695494238
188,toro,4.6117,-76.0814,303.53,55,53,0.93,CO,1695494238
189,cabo san lucas,22.8909,-109.9124,310.71,58,1,4.34,MX,1695494239
190,kharp,66.8014,65.8081,276.83,98,100,2.08,RU,1695494239
191,zvolen,48.5744,19.1532,288.73,97,100,2.2,SK,1695494239
192,sakaiminato,35.55,133.2333,297.14,60,75,7.72,JP,1695494239
193,katsuren-haebaru,26.3369,127.8719,301.16,88,40,1.54,JP,1695494239
194,trevelin,-43.0858,-71.4639,283.86,57,34,2.34,AR,1695494239
195,anadyr,64.75,177.4833,276.43,100,100,4.0,RU,1695494240
196,san juan de miraflores,-12.1629,-76.9635,292.44,72,16,3.94,PE,1695494241
197,kirensk,57.7853,108.1119,282.02,82,32,1.24,RU,1695494241
198,al kharj,24.155,47.3346,307.47,11,97,3.8,SA,1695494241
199,zaragoza,41.6561,-0.8773,295.4,40,0,3.13,ES,1695493960
200,east ballina,-28.8667,153.5833,286.93,72,86,4.72,AU,1695494241
201,machico,32.7,-16.7667,297.43,77,20,1.54,PT,1695494241
202,stanley,54.868,-1.6985,284.7,83,100,2.02,GB,1695494242
203,mariestad,58.7097,13.8237,285.65,96,1,5.0,SE,1695494242
204,nchelenge,-9.3451,28.734,299.17,42,20,0.07,ZM,1695494242
205,fale old settlement,-9.3852,-171.2468,300.82,82,100,8.93,TK,1695494242
206,ha tinh,18.3333,105.9,298.58,89,100,1.09,VN,1695494242
207,elliot lake,46.3834,-82.6331,295.4,41,28,3.59,CA,1695494242
208,hotan,37.0997,79.9269,287.0,42,100,3.61,CN,1695494242
209,remire-montjoly,4.9167,-52.2667,307.17,59,75,4.63,GF,1695494242
210,lebedyn,50.5852,34.4849,291.15,47,14,3.54,UA,1695494242
211,port elizabeth,-33.918,25.5701,288.31,95,100,5.14,ZA,1695494243
212,cullinan,-25.6709,28.5236,299.44,23,62,9.18,ZA,1695494243
213,khanty-mansiysk,61.0042,69.0019,280.21,76,20,2.0,RU,1695494243
214,thames,-37.1333,175.5333,285.97,97,100,2.41,NZ,1695494243
215,padang,-0.9492,100.3543,299.18,88,100,1.46,ID,1695494243
216,dunedin,-45.8742,170.5036,278.6,90,99,2.62,NZ,1695494243
217,margaret river,-33.95,115.0667,283.45,80,4,3.07,AU,1695494243
218,peniche,39.3558,-9.3811,292.35,76,1,5.15,PT,1695494244
219,raduzhny,62.0961,77.475,276.51,96,20,4.44,RU,1695494244
220,johnstown,40.3267,-78.922,286.73,94,100,5.66,US,1695494119
221,barnard castle,54.5415,-1.919,285.33,76,100,2.19,GB,1695494244
222,hithadhoo,-0.6,73.0833,301.36,77,100,5.44,MV,1695494244
223,batticaloa,7.7102,81.6924,299.87,82,96,3.22,LK,1695494244
224,santarem,-2.4431,-54.7083,306.22,66,40,5.66,BR,1695494244
225,sao joao da barra,-21.6403,-41.0511,303.2,79,6,7.31,BR,1695494244
226,arak,34.0917,49.6892,291.51,26,2,1.75,IR,1695494245
227,myeik,12.4333,98.6,298.33,89,99,0.67,MM,1695494245
228,sinabang,2.4803,96.3801,299.26,83,100,4.05,ID,1695494245
229,iqaluit,63.7506,-68.5145,273.0,86,75,1.54,CA,1695494245
230,tulum,20.2167,-87.4667,307.86,42,4,1.76,MX,1695494246
231,tsiombe,-25.3,45.4833,295.71,61,0,2.24,MG,1695494246
232,praia da vitoria,38.7333,-27.0667,297.29,83,75,5.47,PT,1695494246
233,dudinka,69.4058,86.1778,274.61,85,91,7.64,RU,1695494246
234,oamaru,-45.0784,170.9801,278.92,92,99,3.24,NZ,1695494246
235,saacow,1.6279,42.4407,299.25,71,51,8.81,SO,1695494247
236,holualoa,19.6228,-155.9522,299.69,79,0,2.57,US,1695494247
237,sisimiut,66.9395,-53.6735,275.52,52,0,0.46,GL,1695494247
238,tazacorte,28.629,-17.9293,297.69,97,20,3.6,ES,1695494247
239,san vicente de canete,-13.0751,-76.3835,294.55,71,24,3.61,PE,1695494247
240,qamdo,31.1667,97.2333,277.64,71,89,2.39,CN,1695494247
241,surahammar,59.7072,16.2219,286.05,87,100,2.55,SE,1695494248
242,west island,-12.1568,96.8225,299.14,78,100,5.66,CC,1695494248
243,gadzhiyevo,69.2551,33.3362,281.94,95,100,5.9,RU,1695493996
244,chibougamau,49.9168,-74.3659,289.94,36,0,2.57,CA,1695494248
245,arhribs,36.7936,4.3116,291.71,64,0,2.26,DZ,1695494248
246,pangkalan brandan,4.0238,98.2782,297.04,97,100,1.21,ID,1695494248
247,arteche,12.2645,125.4048,298.49,91,100,3.08,PH,1695494249
248,poyang,28.9924,116.6675,294.7,89,100,2.69,CN,1695494249
249,novodvinsk,64.4165,40.8122,289.33,72,0,5.16,RU,1695494249
250,hadibu,12.65,54.0333,300.15,81,59,5.64,YE,1695494249
251,liwale,-9.7667,37.9333,295.47,69,2,3.28,TZ,1695494249
252,qinhuangdao,39.9317,119.5883,288.85,41,65,2.77,CN,1695494249
253,waddan,29.1614,16.139,304.6,15,7,3.47,LY,1695494249
254,tantou,26.0314,119.5986,300.02,89,75,8.0,CN,1695494250
255,leticia,-4.2153,-69.9406,296.18,94,75,7.72,CO,1695494250
256,poltavka,54.3663,71.7632,280.73,61,100,3.31,RU,1695494250
257,chita,52.0333,113.55,283.09,76,75,0.0,RU,1695494250
258,tual,-5.6667,132.75,298.21,77,100,7.88,ID,1695494250
259,weiser,44.251,-116.9693,294.19,37,21,3.01,US,1695494250
260,avarua,-21.2078,-159.775,293.18,64,100,5.14,CK,1695494250
261,korla,41.7597,86.1469,287.21,60,97,2.38,CN,1695494250
262,wittlich,49.9833,6.8833,286.35,74,20,2.57,DE,1695494251
263,ketchikan,55.3422,-131.6461,284.41,82,100,3.09,US,1695494251
264,fort bragg,35.139,-79.006,292.9,80,100,8.23,US,1695494150
265,cody,44.5263,-109.0565,286.29,66,100,2.06,US,1695494064
266,zhaotong,27.3167,103.7167,288.0,98,100,0.75,CN,1695494251
267,hammerfest,70.6634,23.6821,280.4,87,100,2.06,NO,1695494251
268,howard springs,-12.497,131.047,299.16,90,71,1.88,AU,1695494252
269,mugia,43.1041,-9.2179,291.99,84,66,4.14,ES,1695494253
270,carterville,37.7601,-89.0773,303.07,46,0,2.57,US,1695494253
271,belize city,17.4995,-88.1976,306.16,70,20,1.03,BZ,1695494253
272,vila franca do campo,37.7167,-25.4333,297.38,79,6,3.89,PT,1695494253
273,northam,51.0333,-4.2167,287.93,80,100,9.05,GB,1695494253
274,puerto baquerizo moreno,-0.9,-89.6,300.7,69,75,5.14,EC,1695494253
275,mohammedia,33.7066,-7.3944,296.45,68,20,5.66,MA,1695494253
276,sabang,5.8933,95.3214,300.7,75,100,7.1,ID,1695494253
277,opuwo,-18.0607,13.84,296.23,41,8,2.73,NA,1695494254
278,alofi,-19.0595,-169.9187,295.09,68,100,8.75,NU,1695494254
279,harper,4.375,-7.7169,297.74,90,100,2.69,LR,1695494254
280,coaldale,49.7167,-112.6185,292.49,48,75,4.63,CA,1695494254
281,sechenovo,55.2244,45.8906,288.92,42,0,2.78,RU,1695494254
282,sanibel,26.449,-82.0223,306.49,51,1,2.24,US,1695494254
283,canton,23.1167,113.25,301.12,82,0,0.9,CN,1695494254
284,vilyuysk,63.7553,121.6247,276.85,96,60,1.79,RU,1695494254
285,crane,31.3974,-102.3501,309.32,19,4,1.46,US,1695494255
286,blythe,33.6103,-114.5964,305.4,23,0,2.57,US,1695494255
287,mount gambier,-37.8333,140.7667,280.26,80,0,2.77,AU,1695494255
288,hami,42.8,93.45,290.24,33,100,0.96,CN,1695494255
289,awjilah,29.1081,21.2869,302.43,23,0,3.29,LY,1695494255
290,mili,6.0815,171.735,301.05,76,100,1.28,MH,1695494255
291,chifeng,42.2683,118.9636,286.22,42,100,2.37,CN,1695494255
292,lospalos,-8.5186,127.0025,292.39,94,52,1.18,TL,1695494255
293,lorengau,-2.0226,147.2712,300.01,83,90,2.87,PG,1695494256
294,chebarkul',54.9749,60.3633,283.14,79,15,1.87,RU,1695494256
295,mcgregor,26.5609,-81.9145,306.48,51,0,3.6,US,1695494256
296,moyale,3.5167,39.0584,299.98,38,100,3.45,KE,1695494256
297,waingapu,-9.6567,120.2641,296.84,81,83,1.17,ID,1695494256
298,gantang,26.92,119.6333,297.93,93,98,0.95,CN,1695494256
299,harstad,68.799,16.5293,281.01,94,100,1.79,NO,1695494256
300,polyarnyy,69.1989,33.4478,282.19,95,100,5.78,RU,1695494257
301,tyuratam,45.6507,63.3156,292.48,26,41,3.02,KZ,1695494257
302,tunceli,39.1083,39.5471,295.9,25,5,2.45,TR,1695494175
303,yayladagi,35.9025,36.0627,296.3,68,0,1.22,TR,1695494257
304,uturoa,-16.7333,-151.4333,296.89,84,100,12.05,PF,1695494257
305,manokwari,-0.8667,134.0833,298.39,82,99,2.65,ID,1695494257
306,eraan,9.0629,117.7016,298.7,91,100,4.79,PH,1695494257
307,horta,38.5333,-28.6333,296.95,86,75,5.66,PT,1695494258
308,rio casca,-20.2261,-42.6508,307.6,24,11,1.55,BR,1695494258
309,stettler,52.3168,-112.7186,291.34,44,14,9.85,CA,1695494258
310,dongola,19.1667,30.4833,307.86,13,99,7.42,SD,1695494258
311,maine soroa,13.2114,12.0241,307.64,27,22,4.59,NE,1695494259
312,iskateley,67.6803,53.1512,287.36,91,97,7.67,RU,1695494259
313,key largo,25.0865,-80.4473,301.15,69,100,5.07,US,1695494007
314,geraldton,-28.7667,114.6,283.38,87,40,2.57,AU,1695494259
315,ban houayxay,20.2453,100.4547,296.15,95,8,0.2,LA,1695494259
316,papatowai,-46.5619,169.4708,276.95,82,13,1.83,NZ,1695494259
317,libreville,0.3925,9.4537,300.16,83,40,3.6,GA,1695494259
318,ta`u,-14.2336,-169.5144,298.67,75,100,12.76,AS,1695494259
319,kamyzyak,46.11,48.0736,289.14,77,0,5.0,RU,1695494260
320,tomiya,38.3931,140.8861,288.79,86,8,2.16,JP,1695494260
321,baruun-urt,46.6806,113.2792,285.32,72,6,7.77,MN,1695494260
322,thinadhoo,0.5333,72.9333,301.28,76,100,4.52,MV,1695494260
323,port saint john's,-31.6229,29.5448,292.46,91,100,4.45,ZA,1695494260
324,kirakira,-10.4544,161.9205,298.38,82,100,3.41,SB,1695494260
325,port blair,11.6667,92.75,298.17,94,100,1.03,IN,1695494014
326,magadan,59.5667,150.8,277.89,78,25,1.5,RU,1695494261
327,levuka,50.1834,-105.4011,290.05,81,100,5.63,CA,1695494261
328,galliano,29.4422,-90.2992,306.48,48,100,1.54,US,1695494261
329,papao,-17.75,-149.55,295.97,94,100,11.28,PF,1695494261
330,dhidhdhoo,6.8833,73.1,300.99,78,60,4.38,MV,1695494160
331,weno,7.4515,151.8468,298.12,94,100,0.0,FM,1695494261
332,lamu,-2.2717,40.902,298.27,83,16,6.19,KE,1695494261
333,ulmeni,47.4667,23.3,295.24,80,6,1.59,RO,1695494261
334,pecos,31.4229,-103.4932,309.95,18,0,0.0,US,1695494262
335,masterton,-40.9597,175.6575,282.53,98,100,1.54,NZ,1695494262
336,sovetsk,55.0839,21.8785,287.97,96,100,2.17,RU,1695494262
337,thunder bay,48.4001,-89.3168,291.14,82,100,6.69,CA,1695494262
338,porto novo,6.4965,2.6036,300.05,83,100,2.87,BJ,1695494262
339,kyren,51.6828,102.1408,281.05,88,7,0.84,RU,1695494263
340,susuman,62.7833,148.1667,270.54,84,92,0.58,RU,1695494002
341,cabedelo,-6.9811,-34.8339,302.52,76,23,5.55,BR,1695494263
342,pocito,-31.6833,-68.5833,299.87,34,0,4.99,AR,1695494263
343,roquetas de mar,36.7642,-2.6148,298.49,60,2,5.81,ES,1695493991
344,camayenne,9.535,-13.6878,302.2,74,75,4.12,GN,1695494263
345,katsuura,35.1333,140.3,295.11,69,100,9.29,JP,1695494263
346,khorinsk,52.1657,109.7726,283.37,95,100,1.63,RU,1695494263
347,las cruces,32.3123,-106.7783,306.82,21,0,4.63,US,1695494022
348,nouadhibou,20.931,-17.0347,298.14,69,6,7.2,MR,1695494264
349,nuku'alofa,-21.1333,-175.2,294.34,78,40,7.2,TO,1695494264
350,khash,28.2211,61.2158,290.92,16,5,2.98,IR,1695494265
351,homer,59.6425,-151.5483,281.08,89,0,2.68,US,1695494121
352,lakhdenpokh'ya,61.5198,30.1992,288.45,97,100,3.38,RU,1695494265
353,kingston,17.997,-76.7936,306.68,71,20,7.72,JM,1695494266
354,tamanrasset,22.785,5.5228,305.1,11,40,2.57,DZ,1695494266
355,edd,13.9297,41.6925,304.95,76,27,2.67,ER,1695494266
356,turkmenbasy,40.0222,52.9552,296.58,21,0,5.14,TM,1695494266
357,marsh harbour,26.5412,-77.0636,297.06,91,100,5.65,BS,1695494112
358,saudarkrokur,65.7461,-19.6394,276.75,94,100,1.26,IS,1695494266
359,kavieng,-2.5744,150.7967,300.44,80,17,4.57,PG,1695494266
360,shchuchinsk,52.9333,70.2,278.84,65,96,2.36,KZ,1695494266
361,mount pearl,47.5166,-52.7813,290.45,67,75,10.8,CA,1695494063
362,omdurman,15.6445,32.4777,312.99,15,88,2.32,SD,1695494120
363,magong,23.5654,119.5863,300.48,90,8,2.34,TW,1695494267
364,gouyave,12.1646,-61.7296,303.58,74,20,6.69,GD,1695494267
365,banda aceh,5.5577,95.3222,299.32,80,100,4.72,ID,1695494267
366,spittal an der drau,46.8,13.5,286.73,91,100,2.3,AT,1695494267
367,fort st. john,56.2499,-120.8529,288.09,41,75,4.63,CA,1695494089
368,beroroha,-21.6667,45.1667,299.48,43,2,2.21,MG,1695494268
369,andalgala,-27.5819,-66.3165,303.38,36,88,3.57,AR,1695494268
370,karratha,-20.7377,116.8463,299.93,30,8,5.21,AU,1695494268
371,walvis bay,-22.9575,14.5053,288.68,77,6,0.51,NA,1695494268
372,borzya,50.3833,116.5167,282.75,79,72,9.43,RU,1695494269
373,rawson,-43.3002,-65.1023,284.4,57,32,9.82,AR,1695494269
374,new norfolk,-42.7826,147.0587,280.77,99,38,1.3,AU,1695494269
375,el bauga,18.262,33.9081,309.99,16,8,4.02,SD,1695494269
376,hawaiian paradise park,19.5933,-154.9731,299.19,88,75,2.06,US,1695494270
377,muroto-misakicho,33.2833,134.15,296.51,60,100,8.34,JP,1695494271
378,mount isa,-20.7333,139.5,295.02,17,0,4.63,AU,1695494271
379,las vegas,36.175,-115.1372,300.51,25,100,12.07,US,1695494239
380,kwang binh,17.4833,106.6,299.29,85,100,1.61,VN,1695494271
381,barreiras,-12.1528,-44.99,310.81,12,2,2.36,BR,1695494206
382,kapoeta,4.7717,33.5903,304.16,35,100,5.12,SS,1695494271
383,broken hill,-31.95,141.4333,288.35,39,3,4.05,AU,1695494271
384,laguna,38.421,-121.4238,299.44,56,0,4.12,US,1695494271
385,kerikeri,-35.2268,173.9474,286.99,95,100,0.45,NZ,1695494272
386,sinop,41.7711,34.8709,290.65,54,0,2.03,TR,1695494272
387,ilok,45.2222,19.3769,291.18,93,100,1.9,HR,1695494272
388,nemuro,43.3236,145.575,288.19,68,54,3.53,JP,1695494272
389,onguday,50.75,86.15,274.37,99,100,0.53,RU,1695494272
390,jumla,29.2747,82.1838,287.05,92,30,0.42,NP,1695494272
391,atafu village,-8.5421,-172.5159,300.85,81,71,6.82,TK,1695494272
392,envira,-7.3,-70.2167,312.44,24,19,1.08,BR,1695494273
393,villarrobledo,39.2699,-2.6012,293.63,29,3,2.56,ES,1695494243
394,rishikesh,30.1167,78.3167,296.74,92,0,1.16,IN,1695494273
395,west end,26.6833,-78.9667,303.14,70,100,3.53,BS,1695494273
396,maun,-19.9833,23.4167,299.81,16,6,2.93,BW,1695494273
397,mar del plata,-38.0023,-57.5575,288.16,83,0,4.63,AR,1695494273
398,mormugao,15.4,73.8,299.17,84,100,2.34,IN,1695494273
399,kayangel,8.0823,134.7173,301.03,80,99,7.86,PW,1695494274
400,puerto aysen,-45.4,-72.7,281.36,73,99,1.95,CL,1695494274
401,mana,5.6592,-53.7767,303.56,68,68,5.08,GF,1695494274
402,dalandzadgad,43.5708,104.425,285.99,34,100,2.63,MN,1695494274
403,baker city,44.7749,-117.8344,291.26,41,0,6.69,US,1695494274
404,al bardiyah,31.7561,25.0865,299.0,73,0,3.5,LY,1695494274
405,nanning,22.8167,108.3167,299.4,89,7,1.71,CN,1695494274
406,casino,-28.8667,153.05,286.8,87,100,1.29,AU,1695494275
407,la sarre,48.8002,-79.1996,293.3,60,54,2.4,CA,1695494275
408,dakhla,23.6848,-15.958,298.16,65,0,12.35,EH,1695494275
409,ghadamis,30.1337,9.5007,306.92,15,33,2.75,LY,1695494275
410,tangalle,6.024,80.7911,299.24,89,46,3.35,LK,1695494275
411,bonthe,7.5264,-12.505,298.87,87,100,3.12,SL,1695494275
412,naze,28.3667,129.4833,297.66,84,58,2.5,JP,1695494275
413,praia,14.9215,-23.5087,303.45,70,20,4.63,CV,1695494275
414,bom jesus,-9.0744,-44.3586,312.66,14,2,1.0,BR,1695494276
415,carolina beach,34.0352,-77.8936,292.63,84,100,0.89,US,1695494276
416,ribeira brava,32.65,-17.0667,297.43,80,71,0.87,PT,1695494276
417,idrinskoye,54.3708,92.1358,279.09,82,100,1.81,RU,1695494276
418,rizhao,35.4275,119.4553,293.29,77,100,0.97,CN,1695494276
419,antsohihy,-14.8796,47.9875,298.01,68,6,2.81,MG,1695494277
420,queenstown,-31.8976,26.8753,287.72,92,100,2.26,ZA,1695494142
421,nolinsk,57.5596,49.9363,288.28,65,0,1.92,RU,1695494277
422,santa cruz,-17.8,-63.1667,310.18,41,20,12.86,BO,1695494277
423,solnechnyy,50.7214,136.6319,281.69,68,9,1.91,RU,1695494277
424,ipiales,0.8302,-77.6496,289.21,65,63,4.39,CO,1695494222
425,sikandarabad,28.45,77.7,300.38,75,6,2.32,IN,1695494277
426,yanbu,24.0891,38.0637,308.17,46,0,2.57,SA,1695494277
427,jelcz laskowice,51.0213,17.3165,286.47,58,100,2.68,PL,1695494278
428,nykobing falster,54.7691,11.8743,288.77,85,65,0.89,DK,1695494278
429,la'ie,21.6477,-157.9253,300.71,78,68,3.13,US,1695494278
430,bodo,67.28,14.405,282.47,86,100,2.57,NO,1695494098
431,tura,25.5198,90.2201,295.97,98,100,1.51,IN,1695494278
432,torghay,49.6339,63.4981,287.35,38,5,4.56,KZ,1695494278
433,kill devil hills,36.0307,-75.676,298.14,75,100,14.4,US,1695494274
434,saynshand,44.8824,110.1163,288.18,42,60,3.1,MN,1695494279
435,douglas,41.3,-96.167,294.14,95,100,4.63,US,1695494279
436,minas de marcona,-15.2119,-75.1103,291.85,62,11,6.61,PE,1695494279
437,urucurituba,-2.6833,-57.6667,311.56,29,39,0.88,BR,1695494279
438,carutapera,-1.195,-46.02,303.36,63,3,5.65,BR,1695494279
439,torquay,50.4638,-3.5143,289.18,77,62,4.02,GB,1695494279
440,porkhov,57.765,29.5561,293.68,57,100,5.5,RU,1695494279
441,illapel,-31.6308,-71.1653,296.59,37,10,3.84,CL,1695494279
442,plesetsk,62.708,40.2916,289.06,73,0,5.02,RU,1695494280
443,laojunmiao,39.8333,97.7333,282.84,66,100,1.7,CN,1695494280
444,zambezi,-13.5432,23.1047,299.12,23,53,1.85,ZM,1695494280
445,rio gallegos,-51.6226,-69.2181,284.18,40,20,15.95,AR,1695494280
446,samaniego,1.3385,-77.5957,298.85,60,71,2.11,CO,1695494280
447,akureyri,65.6835,-18.0878,278.11,81,100,3.09,IS,1695494280
448,reggane,26.7158,0.1714,312.61,9,88,3.69,DZ,1695494280
449,saint croix,17.7397,-64.7388,306.4,72,20,5.66,VI,1695494280
450,monrovia,6.3005,-10.7969,298.02,83,86,2.87,LR,1695494281
451,hirara,24.8,125.2833,298.3,88,20,2.06,JP,1695494281
452,kristiansund,63.1115,7.732,285.18,87,75,6.17,NO,1695494281
453,torello,42.0463,2.2668,290.76,81,1,1.11,ES,1695494281
454,sao vicente,-23.9631,-46.3919,310.25,74,20,3.09,BR,1695494281
455,manta,-0.95,-80.7333,302.03,70,75,2.06,EC,1695494281
456,porto belo,-27.1578,-48.5531,298.76,85,35,3.38,BR,1695494282
457,george town,5.4112,100.3354,299.83,94,20,0.0,MY,1695494160
458,hasaki,35.7333,140.8333,293.37,60,100,10.04,JP,1695494282
459,paradip garh,20.3167,86.6167,300.63,87,100,6.33,IN,1695494282
460,leua,48.2156,18.6071,288.5,91,100,3.12,SK,1695494282
461,berlin,52.5244,13.4105,289.46,70,0,2.68,DE,1695494282
462,chakia,26.4167,85.05,297.81,90,100,5.15,IN,1695494282
463,eyl,7.9803,49.8164,299.48,79,15,9.06,SO,1695494283
464,acapulco de juarez,16.8634,-99.8901,305.05,70,0,3.09,MX,1695494283
465,abaete,-19.16,-45.4458,309.23,19,4,2.88,BR,1695494283
466,tvoroyri,61.5556,-6.8111,281.68,66,100,5.71,FO,1695494283
467,pithoragarh,29.5833,80.2167,288.43,97,41,0.02,IN,1695494283
468,yelizovo,53.1873,158.3805,277.23,86,40,0.0,RU,1695494283
469,zayed city,24.3768,54.589,308.71,63,0,2.57,AE,1695494284
470,nuuk,64.1835,-51.7216,276.49,60,20,4.12,GL,1695494284
471,severo-yeniseyskiy,60.3725,93.0408,274.99,92,100,2.73,RU,1695494284
472,bairnsdale,-37.8333,147.6167,275.96,96,0,1.18,AU,1695494284
473,hastings,50.8552,0.5729,289.42,30,0,4.64,GB,1695494284
474,usogorsk,63.4106,48.6872,288.42,78,92,4.18,RU,1695494284
475,colonia,50.9333,6.95,289.24,81,20,2.57,DE,1695494284
476,kangding,30.0513,101.9603,286.63,96,76,0.89,CN,1695494284
477,mwene-ditu,-7.0,23.45,296.24,68,21,1.87,CD,1695494286
478,happy valley-goose bay,53.3168,-60.3315,287.32,54,75,6.69,CA,1695494286
479,nova vicosa,-17.8919,-39.3719,299.62,70,56,7.07,BR,1695494286
480,cape coral,26.5629,-81.9495,306.48,51,0,3.6,US,1695493997
481,vadso,70.0744,29.7487,281.64,87,40,4.63,NO,1695494286
482,hartselle,34.4434,-86.9353,304.32,57,0,3.79,US,1695494286
483,ulan bator,47.9077,106.8832,281.22,81,75,4.0,MN,1695494059
484,letlhakeng,-24.0944,25.0298,297.52,17,51,4.01,BW,1695494287
485,trairi,-3.2778,-39.2689,301.79,60,1,7.13,BR,1695494285
486,greymouth,-42.4667,171.2,281.12,87,100,2.38,NZ,1695494287
487,swakopmund,-22.6833,14.5333,288.62,84,19,2.68,NA,1695494287
488,mineiros,-17.5694,-52.5511,309.71,20,99,1.13,BR,1695494287
489,kolpashevo,58.3131,82.9089,275.47,92,100,4.86,RU,1695494287
490,arawa,-6.2132,155.5367,297.58,93,100,2.54,PG,1695494287
491,jeddah,21.5169,39.2192,305.07,70,0,4.12,SA,1695494287
492,chuguyevka,44.1653,133.8633,279.79,76,94,1.76,RU,1695494288
493,hell-ville,-13.4,48.2667,299.48,71,54,3.37,MG,1695494288
494,gurun,5.8172,100.4738,296.99,97,100,1.48,MY,1695494066
495,korocha,50.8107,37.1953,290.55,39,100,3.7,RU,1695494288
496,chimbote,-9.0853,-78.5783,294.55,72,7,5.31,PE,1695494288
497,revelstoke,50.9832,-118.2023,286.16,94,100,1.03,CA,1695494192
498,greenville,35.6127,-77.3663,290.24,98,100,1.34,US,1695494171
499,kota kinabalu,5.9749,116.0724,297.14,88,20,2.68,MY,1695494289
500,luderitz,-26.6481,15.1594,287.83,76,0,12.9,NA,1695494289
501,sibay,52.7181,58.6658,288.25,78,9,1.16,RU,1695494289
502,garbahaarrey,3.3289,42.2209,301.95,54,100,11.03,SO,1695494289
503,bowie,33.4501,-94.4335,306.05,65,28,2.61,US,1695494289
504,candelaria,13.9311,121.4233,297.81,96,100,1.01,PH,1695494289
505,san rafael,-34.6177,-68.3301,293.71,45,99,5.63,AR,1695494289
506,morciano di romagna,43.9141,12.6506,294.31,63,40,3.09,IT,1695494290
507,armacao de buzios,-22.7469,-41.8817,299.24,83,22,3.13,BR,1695494008
508,mata-utu,-13.2816,-176.1745,299.95,83,99,12.19,WF,1695494290
509,juan griego,11.0817,-63.9655,304.14,65,86,3.78,VE,1695494290
510,fisterra,42.9049,-9.2629,291.9,83,67,3.6,ES,1695494290
511,nikolayevsk-on-amure,53.1406,140.73,278.34,77,25,1.96,RU,1695494290
512,broome,42.2506,-75.833,287.6,85,100,3.09,US,1695494290
513,bridgewater,44.3835,-64.5155,293.5,65,99,5.14,CA,1695494275
514,alice springs,-23.7,133.8833,284.9,30,0,2.57,AU,1695494243
515,salalah,17.0151,54.0924,300.2,94,75,3.09,OM,1695494291
516,wangkui,46.8333,126.5,282.92,72,100,3.21,CN,1695494291
517,camapua,-19.5314,-54.0439,309.19,24,98,3.76,BR,1695494291
518,andergrove,-21.0833,149.1833,293.51,70,98,9.21,AU,1695494292
519,mirabad,30.4362,61.8383,294.58,22,0,12.52,AF,1695494292
520,zonguldak,41.25,31.8333,288.6,44,0,1.88,TR,1695494292
521,magistral'nyy,56.1725,107.4458,283.51,75,100,1.34,RU,1695494292
522,ibotirama,-12.1853,-43.2206,310.01,13,6,1.03,BR,1695494292
523,zakynthos,37.7914,20.8953,298.77,69,0,2.06,GR,1695494292
524,newman,37.3138,-121.0208,297.72,32,0,0.81,US,1695494293
525,vangaindrano,-23.35,47.6,294.49,87,38,2.61,MG,1695494293
526,bel ombre,-4.6167,55.4167,300.06,83,75,7.2,SC,1695494293
527,preobrazheniye,42.9019,133.9064,285.45,55,22,2.31,RU,1695494293
528,ad dilam,23.9915,47.1627,307.38,10,100,3.15,SA,1695494293
529,haimen,23.1935,116.6142,300.09,88,4,6.28,CN,1695494293
530,banamba,13.55,-7.45,297.57,78,100,5.84,ML,1695494294
531,artesia,33.8658,-118.0831,300.46,68,40,3.09,US,1695494294
532,puntarenas,9.9763,-84.8384,304.25,62,11,1.51,CR,1695494294
533,puga,21.5833,-104.8167,306.19,58,20,4.12,MX,1695494294
534,mersing,2.4312,103.8405,298.28,90,100,1.47,MY,1695494294
535,dili,-8.5586,125.5736,298.01,55,20,1.61,TL,1695494294
536,togur,58.3631,82.8265,275.53,91,100,4.77,RU,1695494295
537,las khorey,11.1595,48.1967,304.58,71,39,1.8,SO,1695494295
538,bardai,11.65,7.2333,296.27,83,58,2.56,NG,1695494295
539,merowe,18.4833,31.8167,309.36,16,100,8.02,SD,1695494295
540,santa rosalia,27.3167,-112.2833,305.13,36,0,3.11,MX,1695494295
541,saguenay,48.4168,-71.0657,291.61,53,40,3.09,CA,1695494118
542,merizo village,13.2658,144.6691,301.47,96,57,1.92,GU,1695494295
543,gobernador virasora,-28.05,-56.0333,309.64,51,5,1.79,AR,1695494295
544,anna regina,7.2644,-58.5077,303.38,67,6,4.68,GY,1695494296
545,east london,-33.0153,27.9116,290.67,94,100,2.06,ZA,1695494296
546,zhenlai,45.8495,123.2973,285.84,50,100,4.48,CN,1695494296
547,kwolla,8.9333,9.2833,296.9,93,26,1.93,NG,1695494296
548,valparaiso,-33.0393,-71.6273,291.28,68,0,5.14,CL,1695494296
549,cromer,52.9312,1.2989,287.49,54,97,3.13,GB,1695494296
550,soderhamn,61.3037,17.0592,285.9,79,31,3.71,SE,1695494296
551,san luis de la loma,17.2706,-100.8939,304.74,69,26,3.33,MX,1695494296
552,ratnagiri,16.9833,73.3,299.27,86,100,0.75,IN,1695494297
553,klyuchi,52.2667,79.1667,281.12,59,100,3.91,RU,1695494297
554,aldan,58.6031,125.3894,278.99,93,78,2.77,RU,1695494297
555,strezhevoy,60.7333,77.5889,275.91,96,100,7.15,RU,1695494297
556,santiago,-33.4569,-70.6483,292.2,69,100,3.09,CL,1695494100
557,argo,37.6333,22.7333,298.03,47,10,0.76,GR,1695494297
558,flin flon,54.7682,-101.865,294.06,43,0,4.63,CA,1695494298
559,priozersk,61.0393,30.1291,290.93,92,100,2.48,RU,1695494298
560,essaouira,31.5125,-9.77,298.87,50,7,5.66,MA,1695494298
561,cidade velha,14.9167,-23.6167,303.41,70,20,4.63,CV,1695494298
562,ambovombe,-25.1667,46.0833,296.21,54,0,4.1,MG,1695494298
563,verdal,63.7933,11.4817,285.17,87,100,0.17,NO,1695494298
564,pontes e lacerda,-15.2261,-59.3353,315.66,13,7,2.19,BR,1695494298
565,morehead city,34.7229,-76.726,293.71,89,88,7.15,US,1695494298
566,san pedro,14.35,121.0167,299.72,95,40,0.89,PH,1695494299
567,brookings,44.3114,-96.7984,295.62,94,100,3.09,US,1695494195
568,nguigmi,14.2495,13.1092,302.91,52,16,3.34,NE,1695494299
569,zharkent,44.1628,80.0,287.22,56,99,1.0,KZ,1695494299
570,tolanaro,-25.0319,46.9987,296.19,78,0,11.83,MG,1695494299
571,palikir - national government center,6.9248,158.1611,297.56,100,100,1.54,FM,1695494299
572,sao tome,0.3365,6.7273,298.88,83,100,4.02,ST,1695494299
573,selfoss,63.9331,-20.9971,278.98,93,100,2.91,IS,1695494300
574,whakatane,-37.9585,176.9854,288.64,99,100,3.05,NZ,1695494300
575,puerto la cruz,10.2167,-64.6167,301.93,75,100,3.33,VE,1695494075
576,lovendegem,51.1024,3.6267,287.68,80,2,2.79,BE,1695494300
577,hacienda huancane,-15.8222,-70.8856,288.87,19,52,6.06,PE,1695494300
578,craig,40.5153,-107.5464,288.12,29,0,1.54,US,1695494300
579,kavaratti,10.5669,72.642,300.95,79,100,5.06,IN,1695494300
580,nagqu,31.5,92.0,275.99,86,100,1.77,CN,1695494300
581,dawson creek,55.7666,-120.2362,295.14,41,40,0.0,CA,1695494301
582,kincardine,56.0667,-3.7167,285.69,74,100,1.85,GB,1695494301
583,luwero,0.8492,32.4731,292.08,88,71,1.37,UG,1695494301
584,sur,22.5667,59.5289,302.18,65,89,4.46,OM,1695494301
585,beira,-19.8436,34.8389,297.2,88,0,5.14,MZ,1695494301
